$GPGGA,135549.734,5332.418,N,01403.750,E,1,12,1.0,0.0,M,0.0,M,,*6F
$GPGSA,A,3,01,02,03,04,05,06,07,08,09,10,11,12,1.0,1.0,1.0*30
$GPRMC,135549.734,A,5332.418,N,01403.750,E,12464184.6,084.2,020222,000.0,W*4B
$GPGGA,135550.734,6622.365,N,16204.219,E,1,12,1.0,0.0,M,0.0,M,,*62
$GPGSA,A,3,01,02,03,04,05,06,07,08,09,10,11,12,1.0,1.0,1.0*30
$GPRMC,135550.734,A,6622.365,N,16204.219,E,14824846.5,261.5,020222,000.0,W*42
$GPGGA,135551.734,4217.614,N,01403.750,E,1,12,1.0,0.0,M,0.0,M,,*6F
$GPGSA,A,3,01,02,03,04,05,06,07,08,09,10,11,12,1.0,1.0,1.0*30
$GPRMC,135551.734,A,4217.614,N,01403.750,E,16373024.1,083.5,020222,000.0,W*42
$GPGGA,135552.734,5645.163,N,15523.438,E,1,12,1.0,0.0,M,0.0,M,,*62
$GPGSA,A,3,01,02,03,04,05,06,07,08,09,10,11,12,1.0,1.0,1.0*30
$GPRMC,135552.734,A,5645.163,N,15523.438,E,18724159.9,259.4,020222,000.0,W*40
$GPGGA,135553.734,2932.114,N,01734.688,E,1,12,1.0,0.0,M,0.0,M,,*63
$GPGSA,A,3,01,02,03,04,05,06,07,08,09,10,11,12,1.0,1.0,1.0*30
$GPRMC,135553.734,A,2932.114,N,01734.688,E,20491378.2,082.2,020222,000.0,W*4F
$GPGGA,135554.734,4731.032,N,15708.906,E,1,12,1.0,0.0,M,0.0,M,,*69
$GPGSA,A,3,01,02,03,04,05,06,07,08,09,10,11,12,1.0,1.0,1.0*30
$GPRMC,135554.734,A,4731.032,N,15708.906,E,24184518.9,259.6,020222,000.0,W*4B
$GPGGA,135555.734,0145.452,N,07659.531,W,1,12,1.0,0.0,M,0.0,M,,*77
$GPGSA,A,3,01,02,03,04,05,06,07,08,09,10,11,12,1.0,1.0,1.0*30
$GPRMC,135555.734,A,0145.452,N,07659.531,W,8408158.4,083.4,020222,000.0,W*60
$GPGGA,135556.734,3922.097,N,27206.563,E,1,12,1.0,0.0,M,0.0,M,,*6A
$GPGSA,A,3,01,02,03,04,05,06,07,08,09,10,11,12,1.0,1.0,1.0*30
$GPRMC,135556.734,A,3922.097,N,27206.563,E,14538978.5,259.8,020222,000.0,W*40
$GPGGA,135557.734,2431.628,S,06523.438,W,1,12,1.0,0.0,M,0.0,M,,*64
$GPGSA,A,3,01,02,03,04,05,06,07,08,09,10,11,12,1.0,1.0,1.0*30
$GPRMC,135557.734,A,2431.628,S,06523.438,W,11810547.4,082.0,020222,000.0,W*41
$GPGGA,135558.734,2913.733,N,30448.281,E,1,12,1.0,0.0,M,0.0,M,,*6F
$GPGSA,A,3,01,02,03,04,05,06,07,08,09,10,11,12,1.0,1.0,1.0*30
$GPRMC,135558.734,A,2913.733,N,30448.281,E,22741774.7,261.6,020222,000.0,W*49
$GPGGA,135559.734,3832.890,S,14140.781,W,1,12,1.0,0.0,M,0.0,M,,*6A
$GPGSA,A,3,01,02,03,04,05,06,07,08,09,10,11,12,1.0,1.0,1.0*30
$GPRMC,135559.734,A,3832.890,S,14140.781,W,23618213.2,084.7,020222,000.0,W*49
$GPGGA,135600.734,1233.274,N,32305.156,E,1,12,1.0,0.0,M,0.0,M,,*68
$GPGSA,A,3,01,02,03,04,05,06,07,08,09,10,11,12,1.0,1.0,1.0*30
$GPRMC,135600.734,A,1233.274,N,32305.156,E,26095736.4,261.4,020222,000.0,W*43
$GPGGA,135601.734,5645.163,S,16452.969,W,1,12,1.0,0.0,M,0.0,M,,*65
$GPGSA,A,3,01,02,03,04,05,06,07,08,09,10,11,12,1.0,1.0,1.0*30
$GPRMC,135601.734,A,5645.163,S,16452.969,W,16486614.6,088.7,020222,000.0,W*4E
$GPGGA,135602.734,2855.298,S,30530.469,E,1,12,1.0,0.0,M,0.0,M,,*77
$GPGSA,A,3,01,02,03,04,05,06,07,08,09,10,11,12,1.0,1.0,1.0*30
$GPRMC,135602.734,A,2855.298,S,30530.469,E,14700431.4,263.4,020222,000.0,W*50
$GPGGA,135603.734,6720.392,S,15647.813,W,1,12,1.0,0.0,M,0.0,M,,*63
$GPGSA,A,3,01,02,03,04,05,06,07,08,09,10,11,12,1.0,1.0,1.0*30
$GPRMC,135603.734,A,6720.392,S,15647.813,W,8660721.7,090.1,020222,000.0,W*74
$GPGGA,135604.734,4909.178,S,27744.063,E,1,12,1.0,0.0,M,0.0,M,,*7B
$GPGSA,A,3,01,02,03,04,05,06,07,08,09,10,11,12,1.0,1.0,1.0*30
$GPRMC,135604.734,A,4909.178,S,27744.063,E,28913636.7,354.2,020222,000.0,W*5A
$GPGGA,135605.734,8428.444,N,26401.406,E,1,12,1.0,0.0,M,0.0,M,,*6B
$GPGSA,A,3,01,02,03,04,05,06,07,08,09,10,11,12,1.0,1.0,1.0*30
$GPRMC,135605.734,A,8428.444,N,26401.406,E,31917627.8,189.7,020222,000.0,W*4E
$GPGGA,135606.734,6245.284,S,23903.750,E,1,12,1.0,0.0,M,0.0,M,,*76
$GPGSA,A,3,01,02,03,04,05,06,07,08,09,10,11,12,1.0,1.0,1.0*30
$GPRMC,135606.734,A,6245.284,S,23903.750,E,31775234.1,350.2,020222,000.0,W*55
$GPGGA,135607.734,8345.235,N,21345.000,E,1,12,1.0,0.0,M,0.0,M,,*67
$GPGSA,A,3,01,02,03,04,05,06,07,08,09,10,11,12,1.0,1.0,1.0*30
$GPRMC,135607.734,A,8345.235,N,21345.000,E,32581916.9,192.0,020222,000.0,W*43
$GPGGA,135608.734,6613.887,S,18206.563,E,1,12,1.0,0.0,M,0.0,M,,*72
$GPGSA,A,3,01,02,03,04,05,06,07,08,09,10,11,12,1.0,1.0,1.0*30
$GPRMC,135608.734,A,6613.887,S,18206.563,E,32672315.3,343.5,020222,000.0,W*51
$GPGGA,135609.734,8324.003,N,13748.750,E,1,12,1.0,0.0,M,0.0,M,,*63
$GPGSA,A,3,01,02,03,04,05,06,07,08,09,10,11,12,1.0,1.0,1.0*30
$GPRMC,135609.734,A,8324.003,N,13748.750,E,32783063.5,184.9,020222,000.0,W*4E
$GPGGA,135610.734,6808.331,S,12448.281,E,1,12,1.0,0.0,M,0.0,M,,*74
$GPGSA,A,3,01,02,03,04,05,06,07,08,09,10,11,12,1.0,1.0,1.0*30
$GPRMC,135610.734,A,6808.331,S,12448.281,E,33375183.4,337.3,020222,000.0,W*5B
$GPGGA,135611.734,8314.186,N,06131.406,E,1,12,1.0,0.0,M,0.0,M,,*69
$GPGSA,A,3,01,02,03,04,05,06,07,08,09,10,11,12,1.0,1.0,1.0*30
$GPRMC,135611.734,A,8314.186,N,06131.406,E,33190902.4,198.3,020222,000.0,W*49
$GPGGA,135612.734,6823.951,S,01136.094,E,1,12,1.0,0.0,M,0.0,M,,*7B
$GPGSA,A,3,01,02,03,04,05,06,07,08,09,10,11,12,1.0,1.0,1.0*30
$GPRMC,135612.734,A,6823.951,S,01136.094,E,32878927.5,351.6,020222,000.0,W*51
$GPGGA,135613.734,8319.124,N,01053.906,W,1,12,1.0,0.0,M,0.0,M,,*73
$GPGSA,A,3,01,02,03,04,05,06,07,08,09,10,11,12,1.0,1.0,1.0*30
$GPRMC,135613.734,A,8319.124,N,01053.906,W,33907273.2,195.6,020222,000.0,W*56
$GPGGA,135614.734,7210.908,S,05408.438,W,1,12,1.0,0.0,M,0.0,M,,*66
$GPGSA,A,3,01,02,03,04,05,06,07,08,09,10,11,12,1.0,1.0,1.0*30
$GPRMC,135614.734,A,7210.908,S,05408.438,W,33936677.8,336.8,020222,000.0,W*4E
$GPGGA,135615.734,8102.317,N,11931.875,W,1,12,1.0,0.0,M,0.0,M,,*76
$GPGSA,A,3,01,02,03,04,05,06,07,08,09,10,11,12,1.0,1.0,1.0*30
$GPRMC,135615.734,A,8102.317,N,11931.875,W,27799307.6,183.1,020222,000.0,W*59
$GPGGA,135616.734,4731.032,S,12633.750,W,1,12,1.0,0.0,M,0.0,M,,*60
$GPGSA,A,3,01,02,03,04,05,06,07,08,09,10,11,12,1.0,1.0,1.0*30
$GPRMC,135616.734,A,4731.032,S,12633.750,W,6679910.9,158.2,020222,000.0,W*75
$GPGGA,135617.734,7803.719,S,11415.469,W,1,12,1.0,0.0,M,0.0,M,,*6E
$GPGSA,A,3,01,02,03,04,05,06,07,08,09,10,11,12,1.0,1.0,1.0*30
$GPRMC,135617.734,A,7803.719,S,11415.469,W,34666274.2,341.1,020222,000.0,W*4F
$GPGGA,135618.734,7956.155,N,16802.813,W,1,12,1.0,0.0,M,0.0,M,,*7F
$GPGSA,A,3,01,02,03,04,05,06,07,08,09,10,11,12,1.0,1.0,1.0*30
$GPRMC,135618.734,A,7956.155,N,16802.813,W,34405501.5,107.7,020222,000.0,W*5D
$GPGGA,135619.734,7217.344,S,27826.250,E,1,12,1.0,0.0,M,0.0,M,,*74
$GPGSA,A,3,01,02,03,04,05,06,07,08,09,10,11,12,1.0,1.0,1.0*30
$GPRMC,135619.734,A,7217.344,S,27826.250,E,4323226.1,266.9,020222,000.0,W*6A
$GPGGA,135620.734,7343.596,S,15420.156,W,1,12,1.0,0.0,M,0.0,M,,*6B
$GPGSA,A,3,01,02,03,04,05,06,07,08,09,10,11,12,1.0,1.0,1.0*30
$GPRMC,135620.734,A,7343.596,S,15420.156,W,34574939.5,071.5,020222,000.0,W*4B
$GPGGA,135621.734,8035.384,N,28610.313,E,1,12,1.0,0.0,M,0.0,M,,*61
$GPGSA,A,3,01,02,03,04,05,06,07,08,09,10,11,12,1.0,1.0,1.0*30
$GPRMC,135621.734,A,8035.384,N,28610.313,E,3606721.5,273.4,020222,000.0,W*75
$GPGGA,135622.734,7902.306,N,18352.031,W,1,12,1.0,0.0,M,0.0,M,,*7B
$GPGSA,A,3,01,02,03,04,05,06,07,08,09,10,11,12,1.0,1.0,1.0*30
$GPRMC,135622.734,A,7902.306,N,18352.031,W,3606721.5,273.4,020222,000.0,W*6F
